{
  "type": "FeatureCollection",
  "features": [
    {
      "type": "Feature",
      "geometry": {
        "type": "Point",
        "coordinates": [
          112.228,
          23.908
        ]
      },
      "properties": {
        "name": "燕岩风景区",
        "type": "景区",
        "desc": "中国最佳溶洞奇观，万燕归巢壮景，'岭南第一洞'",
        "rating": "4A"
      }
    },
    {
      "type": "Feature",
      "geometry": {
        "type": "Point",
        "coordinates": [
          112.213,
          23.916
        ]
      },
      "properties": {
        "name": "世外桃源景区",
        "type": "景区",
        "desc": "陶渊明笔下桃花源原型地，溪流潺潺，桃林环绕",
        "rating": "4A"
      }
    },
    {
      "type": "Feature",
      "geometry": {
        "type": "Point",
        "coordinates": [
          112.16,
          23.952
        ]
      },
      "properties": {
        "name": "燕峰峡漂流",
        "type": "景区",
        "desc": "广东最长漂流河道，全长5.8公里",
        "rating": ""
      }
    },
    {
      "type": "Feature",
      "geometry": {
        "type": "Point",
        "coordinates": [
          112.182,
          23.922
        ]
      },
      "properties": {
        "name": "塔山公园",
        "type": "景区",
        "desc": "城区中心公园，登塔可览怀集全城风光",
        "rating": ""
      }
    },
    {
      "type": "Feature",
      "geometry": {
        "type": "Point",
        "coordinates": [
          112.19,
          23.928
        ]
      },
      "properties": {
        "name": "文昌书院",
        "type": "景区",
        "desc": "始建于明代的古书院，怀集历史文脉所在",
        "rating": ""
      }
    },
    {
      "type": "Feature",
      "geometry": {
        "type": "Point",
        "coordinates": [
          112.24,
          23.9
        ]
      },
      "properties": {
        "name": "六祖岩",
        "type": "景区",
        "desc": "禅宗六祖慧能曾隐居之地，佛教文化圣地",
        "rating": ""
      }
    },
    {
      "type": "Feature",
      "geometry": {
        "type": "Point",
        "coordinates": [
          112.205,
          23.945
        ]
      },
      "properties": {
        "name": "怀集温泉度假村",
        "type": "景区",
        "desc": "天然硫磺温泉，养生休闲好去处",
        "rating": ""
      }
    },
    {
      "type": "Feature",
      "geometry": {
        "type": "Point",
        "coordinates": [
          112.195,
          23.96
        ]
      },
      "properties": {
        "name": "凤岗河湿地公园",
        "type": "景区",
        "desc": "生态湿地公园，鸟类栖息天堂",
        "rating": ""
      }
    },
    {
      "type": "Feature",
      "geometry": {
        "type": "Point",
        "coordinates": [
          112.155,
          23.885
        ]
      },
      "properties": {
        "name": "下帅壮族瑶族乡",
        "type": "景区",
        "desc": "广东唯一壮族瑶族乡，浓郁民族风情",
        "rating": ""
      }
    },
    {
      "type": "Feature",
      "geometry": {
        "type": "Point",
        "coordinates": [
          112.268,
          23.875
        ]
      },
      "properties": {
        "name": "怀集三岳自然保护区",
        "type": "景区",
        "desc": "原始次生林保护区，珍稀动植物基因库",
        "rating": ""
      }
    },
    {
      "type": "Feature",
      "geometry": {
        "type": "Point",
        "coordinates": [
          112.215,
          23.948
        ]
      },
      "properties": {
        "name": "怀集现代农业产业园",
        "type": "农业",
        "desc": "供港蔬菜基地，珠三角绿色菜篮子核心据点",
        "rating": ""
      }
    },
    {
      "type": "Feature",
      "geometry": {
        "type": "Point",
        "coordinates": [
          112.225,
          23.955
        ]
      },
      "properties": {
        "name": "华光农业生态园",
        "type": "农业",
        "desc": "集采摘、科普、生态旅游于一体的现代农业观光园",
        "rating": ""
      }
    },
    {
      "type": "Feature",
      "geometry": {
        "type": "Point",
        "coordinates": [
          112.22,
          23.94
        ]
      },
      "properties": {
        "name": "怀集生态农庄",
        "type": "农业",
        "desc": "大型生态种植基地，草莓/葡萄采摘，亲子体验",
        "rating": ""
      }
    },
    {
      "type": "Feature",
      "geometry": {
        "type": "Point",
        "coordinates": [
          112.195,
          23.915
        ]
      },
      "properties": {
        "name": "岭南佳果园",
        "type": "农业",
        "desc": "四季水果采摘园，砂糖橘、百香果、火龙果",
        "rating": ""
      }
    },
    {
      "type": "Feature",
      "geometry": {
        "type": "Point",
        "coordinates": [
          112.235,
          23.93
        ]
      },
      "properties": {
        "name": "绿丰源农业庄园",
        "type": "农业",
        "desc": "珠三角蔬菜供应基地，体验农耕文化",
        "rating": ""
      }
    },
    {
      "type": "Feature",
      "geometry": {
        "type": "Point",
        "coordinates": [
          112.165,
          23.948
        ]
      },
      "properties": {
        "name": "山水田园农庄",
        "type": "农业",
        "desc": "集餐饮住宿采摘一体，怀集特色全牛宴",
        "rating": ""
      }
    },
    {
      "type": "Feature",
      "geometry": {
        "type": "Point",
        "coordinates": [
          112.224,
          23.91
        ]
      },
      "properties": {
        "name": "燕岩农家乐",
        "type": "餐饮",
        "desc": "燕岩景区旁，地道怀集农家菜，招牌黄焖鸡",
        "rating": ""
      }
    },
    {
      "type": "Feature",
      "geometry": {
        "type": "Point",
        "coordinates": [
          112.21,
          23.918
        ]
      },
      "properties": {
        "name": "桃花源农家院",
        "type": "餐饮",
        "desc": "世外桃源入口处，柴火灶烧菜，食材自家种养",
        "rating": ""
      }
    },
    {
      "type": "Feature",
      "geometry": {
        "type": "Point",
        "coordinates": [
          112.172,
          23.936
        ]
      },
      "properties": {
        "name": "绿水青山农家乐",
        "type": "餐饮",
        "desc": "依山傍水，可垂钓采摘，适合家庭聚会",
        "rating": ""
      }
    },
    {
      "type": "Feature",
      "geometry": {
        "type": "Point",
        "coordinates": [
          112.2,
          23.942
        ]
      },
      "properties": {
        "name": "田园小筑",
        "type": "餐饮",
        "desc": "近县城，环境清幽，特色竹筒饭、窑鸡",
        "rating": ""
      }
    },
    {
      "type": "Feature",
      "geometry": {
        "type": "Point",
        "coordinates": [
          112.188,
          23.955
        ]
      },
      "properties": {
        "name": "山泉人家",
        "type": "餐饮",
        "desc": "山泉水养殖鱼类，现捞现做，鲜美无比",
        "rating": ""
      }
    },
    {
      "type": "Feature",
      "geometry": {
        "type": "Point",
        "coordinates": [
          112.188,
          23.926
        ]
      },
      "properties": {
        "name": "怀集味道（总店）",
        "type": "餐饮",
        "desc": "怀集本地菜标杆：切粉、酿豆腐、白切鸡",
        "rating": ""
      }
    },
    {
      "type": "Feature",
      "geometry": {
        "type": "Point",
        "coordinates": [
          112.185,
          23.924
        ]
      },
      "properties": {
        "name": "桥头酒楼",
        "type": "餐饮",
        "desc": "三十年老店，怀集地道早茶、粤菜经典",
        "rating": ""
      }
    },
    {
      "type": "Feature",
      "geometry": {
        "type": "Point",
        "coordinates": [
          112.183,
          23.929
        ]
      },
      "properties": {
        "name": "燕城美食坊",
        "type": "餐饮",
        "desc": "汇聚怀集各乡镇特色小吃，价格亲民",
        "rating": ""
      }
    },
    {
      "type": "Feature",
      "geometry": {
        "type": "Point",
        "coordinates": [
          112.18,
          23.932
        ]
      },
      "properties": {
        "name": "江畔渔港",
        "type": "餐饮",
        "desc": "绥江边上，河鲜现点现做，环境雅致",
        "rating": ""
      }
    },
    {
      "type": "Feature",
      "geometry": {
        "type": "Point",
        "coordinates": [
          112.192,
          23.92
        ]
      },
      "properties": {
        "name": "竹乡人家",
        "type": "餐饮",
        "desc": "怀集特产竹笋宴，全竹宴闻名远近",
        "rating": ""
      }
    },
    {
      "type": "Feature",
      "geometry": {
        "type": "Point",
        "coordinates": [
          112.187,
          23.925
        ]
      },
      "properties": {
        "name": "怀集华苑大酒店",
        "type": "住宿",
        "desc": "县城中心四星级酒店，交通便利，设施齐全",
        "rating": ""
      }
    },
    {
      "type": "Feature",
      "geometry": {
        "type": "Point",
        "coordinates": [
          112.162,
          23.95
        ]
      },
      "properties": {
        "name": "燕峰峡温泉酒店",
        "type": "住宿",
        "desc": "温泉入户，依山而建，度假首选",
        "rating": ""
      }
    },
    {
      "type": "Feature",
      "geometry": {
        "type": "Point",
        "coordinates": [
          112.212,
          23.917
        ]
      },
      "properties": {
        "name": "桃花源民宿",
        "type": "住宿",
        "desc": "景区特色民宿，推窗见景，远离喧嚣",
        "rating": ""
      }
    },
    {
      "type": "Feature",
      "geometry": {
        "type": "Point",
        "coordinates": [
          112.195,
          23.93
        ]
      },
      "properties": {
        "name": "怀集悦湖度假酒店",
        "type": "住宿",
        "desc": "湖畔度假酒店，会议接待与休闲度假",
        "rating": ""
      }
    }
  ],
  "metadata": {
    "system": "绿美怀集·GIS导览系统",
    "city": "广东省肇庆市怀集县",
    "total": 30,
    "time": "2026-06"
  }
}